{
"type": "FeatureCollection",
"crs": { "type": "name", "properties": { "name": "urn:ogc:def:crs:OGC:1.3:CRS84" } },
"features": [
{ "type": "Feature", "properties": { "種別": "認知症サポート医", "名称": "武蔵小山メンタルクリニック ", "住所": "東京都品川区小山3-26-1 ヒルズムサコビル6F", "電話番号": "03-3782-5955", "LocName": "東京都\/品川区\/小山\/三丁目\/２６番", "fX": 139.70369, "fY": 35.61961, "iConf": 5, "iLvl": 7 }, "geometry": { "type": "Point", "coordinates": [ 139.70369, 35.61961 ] } },
{ "type": "Feature", "properties": { "種別": "認知症サポート医", "名称": "武藤医院", "住所": "東京都品川区小山5-22-2", "電話番号": "03-3787-7184 ", "LocName": "東京都\/品川区\/小山\/五丁目\/２２番", "fX": 139.69966, "fY": 35.61573, "iConf": 5, "iLvl": 7 }, "geometry": { "type": "Point", "coordinates": [ 139.69966, 35.61573 ] } },
{ "type": "Feature", "properties": { "種別": "認知症サポート医", "名称": "はるクリニック西小山", "住所": "東京都品川区小山6-1-1", "電話番号": "03-5794-8630", "LocName": "東京都\/品川区\/小山\/六丁目\/１番", "fX": 139.69803, "fY": 35.61489, "iConf": 5, "iLvl": 7 }, "geometry": { "type": "Point", "coordinates": [ 139.69803, 35.61489 ] } },
{ "type": "Feature", "properties": { "種別": "認知症サポート医", "名称": "もりしたクリニック", "住所": "東京都品川区荏原3-7-5 和田ビル2F", "電話番号": "03-5750-2832", "LocName": "東京都\/品川区\/荏原\/三丁目\/７番", "fX": 139.70708, "fY": 35.61705, "iConf": 5, "iLvl": 7 }, "geometry": { "type": "Point", "coordinates": [ 139.70708, 35.61705 ] } },
{ "type": "Feature", "properties": { "種別": "認知症サポート医", "名称": "戸越銀座駅近内科クリニック", "住所": "東京都品川区平塚1-7-16 カスタリア戸越駅前1F ", "電話番号": "03-5749-1054", "LocName": "東京都\/品川区\/平塚\/一丁目\/７番", "fX": 139.71614, "fY": 35.61499, "iConf": 5, "iLvl": 7 }, "geometry": { "type": "Point", "coordinates": [ 139.71614, 35.61499 ] } },
{ "type": "Feature", "properties": { "種別": "認知症サポート医", "名称": "J戸越銀座クリニック", "住所": "東京都品川区平塚1-8-20 美和ビル3F", "電話番号": "03-3786-7773 ", "LocName": "東京都\/品川区\/平塚\/一丁目\/８番", "fX": 139.71504, "fY": 35.61507, "iConf": 5, "iLvl": 7 }, "geometry": { "type": "Point", "coordinates": [ 139.71504, 35.61507 ] } },
{ "type": "Feature", "properties": { "種別": "認知症サポート医", "名称": "たごファミリークリニック", "住所": "東京都品川区平塚2-15-15 3F", "電話番号": "03-3785-5250", "LocName": "東京都\/品川区\/平塚\/二丁目\/１５番", "fX": 139.71387, "fY": 35.61618, "iConf": 5, "iLvl": 7 }, "geometry": { "type": "Point", "coordinates": [ 139.71387, 35.61618 ] } },
{ "type": "Feature", "properties": { "種別": "認知症サポート医", "名称": "内野医院", "住所": "東京都品川区中延1-8-7", "電話番号": "03-3784-1456 ", "LocName": "東京都\/品川区\/中延\/一丁目\/８番", "fX": 139.71175, "fY": 35.61222, "iConf": 5, "iLvl": 7 }, "geometry": { "type": "Point", "coordinates": [ 139.71175, 35.61222 ] } },
{ "type": "Feature", "properties": { "種別": "認知症サポート医", "名称": "荏原中延クリニック", "住所": "東京都品川区中延2-15-5", "電話番号": "03-3784-7013 ", "LocName": "東京都\/品川区\/中延\/二丁目\/１５番", "fX": 139.71082, "fY": 35.60991, "iConf": 5, "iLvl": 7 }, "geometry": { "type": "Point", "coordinates": [ 139.71082, 35.60991 ] } },
{ "type": "Feature", "properties": { "種別": "認知症サポート医", "名称": "松本クリニック", "住所": "東京都品川区中延4-5-10", "電話番号": "03-3784-9100", "LocName": "東京都\/品川区\/中延\/四丁目\/５番", "fX": 139.71271, "fY": 35.60566, "iConf": 5, "iLvl": 7 }, "geometry": { "type": "Point", "coordinates": [ 139.71271, 35.60566 ] } },
{ "type": "Feature", "properties": { "種別": "認知症サポート医", "名称": "もり脳神経外科クリニック ", "住所": "東京都品川区中延5-2-2 ザ・パークハウス品川荏原町2011 ", "電話番号": "03-3788-1777", "LocName": "東京都\/品川区\/中延\/五丁目\/２番", "fX": 139.70773, "fY": 35.60369, "iConf": 5, "iLvl": 7 }, "geometry": { "type": "Point", "coordinates": [ 139.70773, 35.60369 ] } },
{ "type": "Feature", "properties": { "種別": "認知症サポート医", "名称": "中村医院", "住所": "東京都品川区中延6-4-17", "電話番号": "03-3784-0128", "LocName": "東京都\/品川区\/中延\/六丁目\/４番", "fX": 139.71257, "fY": 35.60228, "iConf": 5, "iLvl": 7 }, "geometry": { "type": "Point", "coordinates": [ 139.71257, 35.60228 ] } },
{ "type": "Feature", "properties": { "種別": "認知症サポート医", "名称": "小川医院", "住所": "東京都品川区中延6-9-18", "電話番号": "03-3781-7606", "LocName": "東京都\/品川区\/中延\/六丁目\/９番", "fX": 139.71217, "fY": 35.60098, "iConf": 5, "iLvl": 7 }, "geometry": { "type": "Point", "coordinates": [ 139.71217, 35.60098 ] } },
{ "type": "Feature", "properties": { "種別": "認知症サポート医", "名称": "昭和通り内科診療所", "住所": "東京都品川区西中延2-17-3", "電話番号": "03-3784-5821", "LocName": "東京都\/品川区\/西中延\/二丁目\/１７番", "fX": 139.70802, "fY": 35.60877, "iConf": 5, "iLvl": 7 }, "geometry": { "type": "Point", "coordinates": [ 139.70802, 35.60877 ] } },
{ "type": "Feature", "properties": { "種別": "認知症サポート医", "名称": "さいとうファミリークリニック", "住所": "東京都品川区旗の台1-8-3", "電話番号": "03-3786-0146", "LocName": "東京都\/品川区\/旗の台\/一丁目\/８番", "fX": 139.70198, "fY": 35.61013, "iConf": 5, "iLvl": 7 }, "geometry": { "type": "Point", "coordinates": [ 139.70198, 35.61013 ] } },
{ "type": "Feature", "properties": { "種別": "認知症サポート医", "名称": "田中クリニック", "住所": "東京都品川区旗の台2-1-16 KGMHILLS2F", "電話番号": "03-3786-8353", "LocName": "東京都\/品川区\/旗の台\/二丁目\/１番", "fX": 139.70404, "fY": 35.60709, "iConf": 5, "iLvl": 7 }, "geometry": { "type": "Point", "coordinates": [ 139.70404, 35.60709 ] } },
{ "type": "Feature", "properties": { "種別": "認知症サポート医", "名称": "旗の台脳神経外科病院", "住所": "東京都品川区旗の台5-17-16", "電話番号": "03-3781-1108 ", "LocName": "東京都\/品川区\/旗の台\/五丁目\/１７番", "fX": 139.69919, "fY": 35.60374, "iConf": 5, "iLvl": 7 }, "geometry": { "type": "Point", "coordinates": [ 139.69919, 35.60374 ] } },
{ "type": "Feature", "properties": { "種別": "認知症サポート医", "名称": "なるき内科クリニック", "住所": "東京都品川区二葉3-26-6 ヴィラ西大井101", "電話番号": "03-5702-2255", "LocName": "東京都\/品川区\/二葉\/三丁目\/２６番", "fX": 139.72025, "fY": 35.6019, "iConf": 5, "iLvl": 7 }, "geometry": { "type": "Point", "coordinates": [ 139.72025, 35.6019 ] } },
{ "type": "Feature", "properties": { "種別": "認知症サポート医", "名称": "二葉クリニック", "住所": "東京都品川区二葉4-18-2", "電話番号": "03-3787-2881", "LocName": "東京都\/品川区\/二葉\/四丁目\/１８番", "fX": 139.71788, "fY": 35.60202, "iConf": 5, "iLvl": 7 }, "geometry": { "type": "Point", "coordinates": [ 139.71788, 35.60202 ] } },
{ "type": "Feature", "properties": { "種別": "認知症サポート医", "名称": "(医・社)東品川クリニック", "住所": "東京都品川区東品川3-18-3", "電話番号": "03-3472-6684", "LocName": "東京都\/品川区\/東品川\/三丁目\/１８番", "fX": 139.74983, "fY": 35.61364, "iConf": 5, "iLvl": 7 }, "geometry": { "type": "Point", "coordinates": [ 139.74983, 35.61364 ] } },
{ "type": "Feature", "properties": { "種別": "認知症サポート医", "名称": "たかせクリニック", "住所": "東京都品川区西品川1-10-1-105", "電話番号": "03-3492-8559 ", "LocName": "東京都\/品川区\/西品川\/一丁目\/１０番", "fX": 139.72856, "fY": 35.61332, "iConf": 5, "iLvl": 7 }, "geometry": { "type": "Point", "coordinates": [ 139.72856, 35.61332 ] } },
{ "type": "Feature", "properties": { "種別": "認知症サポート医", "名称": " (医?社)有仁会阿部病院", "住所": "東京都品川区東五反田1-6-8", "電話番号": "03-3447-4777 ", "LocName": "東京都\/品川区\/東五反田\/一丁目\/６番", "fX": 139.7261, "fY": 35.62714, "iConf": 5, "iLvl": 7 }, "geometry": { "type": "Point", "coordinates": [ 139.7261, 35.62714 ] } },
{ "type": "Feature", "properties": { "種別": "認知症サポート医", "名称": "まこと会田谷クリニック", "住所": "東京都品川区西五反田2-12-9 1F", "電話番号": "03-3491-2348", "LocName": "東京都\/品川区\/西五反田\/二丁目\/１２番", "fX": 139.71962, "fY": 35.62682, "iConf": 5, "iLvl": 7 }, "geometry": { "type": "Point", "coordinates": [ 139.71962, 35.62682 ] } },
{ "type": "Feature", "properties": { "種別": "認知症サポート医", "名称": "(医・社)二葉会シティクリニック", "住所": "東京都品川区東五反田2-2-16 フクヤビル3F", "電話番号": "03-3440-2778 ", "LocName": "東京都\/品川区\/東五反田\/二丁目\/２番", "fX": 139.72519, "fY": 35.62542, "iConf": 5, "iLvl": 7 }, "geometry": { "type": "Point", "coordinates": [ 139.72519, 35.62542 ] } },
{ "type": "Feature", "properties": { "種別": "認知症サポート医", "名称": "NTT東日本関東病院", "住所": "東京都品川区東五反田5-9-22", "電話番号": "03-3448-6111", "LocName": "東京都\/品川区\/東五反田\/五丁目\/９番", "fX": 139.72539, "fY": 35.63111, "iConf": 5, "iLvl": 7 }, "geometry": { "type": "Point", "coordinates": [ 139.72539, 35.63111 ] } },
{ "type": "Feature", "properties": { "種別": "認知症サポート医", "名称": "田ロクリニック", "住所": "東京都品川区西五反田1-25-5", "電話番号": "03-6417-4155 ", "LocName": "東京都\/品川区\/西五反田\/一丁目\/２５番", "fX": 139.72244, "fY": 35.62389, "iConf": 5, "iLvl": 7 }, "geometry": { "type": "Point", "coordinates": [ 139.72244, 35.62389 ] } }
]
}
